City_ID,City,Country,Max Temp,Current Description,Lat,Lng,Hotel Name
1,Williston,US,90.34,broken clouds,48.147,-103.618,Hampton Inn & Suites Williston
3,Avarua,CK,77.05,scattered clouds,-21.2078,-159.775,Paradise Inn
5,Cabo San Lucas,MX,94.6,scattered clouds,22.8909,-109.9124,Hotel Tesoro Los Cabos
7,Luwuk,ID,75.47,broken clouds,-0.9516,122.7875,Hotel Santika Luwuk
8,Georgetown,MY,82.33,few clouds,5.4112,100.3354,Cititel Penang
11,Salalah,OM,77.09,broken clouds,17.0151,54.0924,"HAMDAN PLAZA HOTEL SALALAH, an HTG Hotel"
13,Waingapu,ID,71.64,clear sky,-9.6567,120.2641,Pondok Wisata Elim
14,Hithadhoo,MV,81.57,light rain,-0.6,73.0833,Scoop Guest House
20,Richards Bay,ZA,66.04,light rain,-28.783,32.0377,BON Hotel Waterfront Richards Bay
21,Zhanaozen,KZ,82.47,clear sky,43.3,52.8,K.korabay 28A
23,The Valley,AI,87.66,few clouds,18.217,-63.0578,CeBlue Villas & Beach Resort
26,Isangel,VU,70.05,heavy intensity rain,-19.55,169.2667,Tanna Lodge
29,Najran,SA,90.25,overcast clouds,17.4924,44.1277,محمد هادي ال فطيح
30,Honiara,SB,75.7,clear sky,-9.4333,159.95,Heritage Park Hotel
31,Touros,BR,76.1,overcast clouds,-5.1989,-35.4608,INN NEW HORIZON
33,Rikitea,PF,72.64,light rain,-23.1203,-134.9692,People ThankYou
35,Gorele,TR,70.57,clear sky,41.0308,39.0031,Görele Öğretmenevi
36,Ambunti,PG,72.03,overcast clouds,-4.2365,142.8448,AMBUNTI HIDE INN
38,Butaritari,KI,81.28,overcast clouds,3.0707,172.7902,Isles Sunset Lodge
39,Hilo,US,89.28,clear sky,19.7297,-155.09,Hilo Hawaiian Hotel
41,Saint-Georges,GD,85.68,clear sky,12.0564,-61.7485,Radisson Grenada Beach Resort
43,Arraial Do Cabo,BR,71.56,few clouds,-22.9661,-42.0278,Pousada Porto Praia
46,Lorengau,PG,80.55,overcast clouds,-2.0226,147.2712,Lorengau Harbourside Hotel
47,Kapaa,US,82.72,few clouds,22.0752,-159.319,Sheraton Kauai Coconut Beach Resort
48,Makakilo City,US,80.92,scattered clouds,21.3469,-158.0858,Marriott's Ko Olina Beach Club
49,Albany,US,80.94,broken clouds,42.6001,-73.9662,
52,Awbari,LY,91.04,clear sky,26.5921,12.7805,فندق أوباري
54,Ambon,ID,78.35,moderate rain,-3.6954,128.1814,Swiss-Belhotel Ambon
55,Corinto,GR,85.89,clear sky,37.9407,22.9573,Ephira Hotel
56,Primo Tapia,MX,81.99,scattered clouds,32.22,-116.9172,Puerto Nuevo Baja Hotel y Villas
58,Kahului,US,83.97,scattered clouds,20.8947,-156.47,Maui Seaside Hotel
62,Hovd,MN,67.73,few clouds,48.0056,91.6419,Hotel Khovd
63,Puerto Ayora,EC,78.76,broken clouds,-0.7393,-90.3518,Finch Bay Galapagos Hotel
64,Rincon De La Victoria,ES,82.85,clear sky,36.7172,-4.2758,Fay Hotels Victoria Beach
65,Saint George,US,94.62,clear sky,37.1041,-113.5841,Best Western Plus Abbey Inn
67,Amboise,FR,84.74,clear sky,47.4125,0.9827,Hotel Amboise Le Blason
68,Guerrero Negro,MX,81.91,broken clouds,27.9769,-114.0611,"Casa Laguna, Bed & Breakfast"
69,Prince George,CA,83.25,clear sky,53.9166,-122.753,Canadas Best Value Inn Prince George
70,Qunduz,AF,89.37,clear sky,36.729,68.857,Spin Zar cotton company
71,Cockburn Town,TC,82.15,few clouds,21.4612,-71.1419,Osprey Beach Hotel
72,Mahibadhoo,MV,78.94,overcast clouds,3.7833,72.9667,Omadhoo Inn
73,Vaini,TO,75.36,broken clouds,-21.2,-175.2,Keleti Beach Resort
75,Pavlovka,RU,65.23,broken clouds,52.6897,47.1405,Rus'
76,Pemba,MZ,75.9,scattered clouds,-12.974,40.5178,Guesthouse Samotina
78,Roebourne,AU,71.89,broken clouds,-20.7833,117.1333,Latitude20 Roebourne Village
79,Bontang,ID,76.17,light rain,0.1333,117.5,KOPKAR Hotel Bintang Sintuk
80,Atambua,ID,70.52,scattered clouds,-9.1061,124.8925,Kost Alfa Flat
83,Oistins,BB,86.09,scattered clouds,13.0667,-59.5333,Butterfly Beach Hotel
88,Tabou,CI,75.52,few clouds,4.423,-7.3528,hotêl doufoulougou
90,Gusau,NG,70.66,very heavy rain,12.1628,6.6614,GUEST INN
96,Faanui,PF,79.27,clear sky,-16.4833,-151.75,Bora-Bora Pearl Beach Resort & Spa
98,Bambous Virieux,MU,70.21,light rain,-20.3428,57.7575,Casa Tia Villa
100,Adrar,MR,94.98,broken clouds,20.5022,-10.0711,
104,Mangaluru,IN,79.66,moderate rain,12.8667,74.8833,Goldfinch Hotel Mangaluru
105,Chimore,BO,83.48,clear sky,-16.9833,-65.1333,Bichito
107,Houma,US,84.2,scattered clouds,29.5958,-90.7195,Courtyard by Marriott Houma
112,Atuona,PF,76.86,clear sky,-9.8,-139.0333,Villa Enata
114,George Town,MY,82.33,few clouds,5.4112,100.3354,Cititel Penang
116,Nouadhibou,MR,71.58,few clouds,20.931,-17.0347,El Medina
117,Ribeira Grande,PT,77.4,broken clouds,38.5167,-28.7,Quinta da Meia Eira
119,Khani,GE,65.77,scattered clouds,41.9563,42.9566,კურორტი ზეკარი/Resort Zekari
123,Broome,US,81.7,broken clouds,42.2506,-75.833,Chenango Valley State Park
126,Pontianak,ID,76.98,light rain,-0.0333,109.3333,Aston Pontianak Hotel & Convention Center
127,Hambantota,LK,79.45,overcast clouds,6.1241,81.1185,Bungalow 63
128,Rockport,US,94.06,clear sky,28.0206,-97.0544,"Holiday Inn Express & Suites Rockport - Bay View, an IHG Hotel"
129,Alta Floresta,BR,94.82,smoke,-9.8756,-56.0861,Floresta Amazonica Hotel
130,Bazaliya,UA,73.81,overcast clouds,49.7127,26.4733,
131,Pokhvistnevo,RU,68.16,scattered clouds,53.6524,52.1274,Pohvistnevskaya Central Hotel
133,Cusco,PE,70.03,few clouds,-13.5183,-71.9781,"Monasterio, A Belmond Hotel, Cusco"
134,Scarborough,GB,66.33,overcast clouds,54.2797,-0.4044,The Grand Hotel Scarborough
135,Kupang,ID,75.33,scattered clouds,-10.1667,123.5833,Hotel On The Rock by Prasanthi
137,Luganville,VU,74.48,overcast clouds,-15.5333,167.1667,The Espiritu Hotel
138,Acapulco,MX,87.62,broken clouds,16.8634,-99.8901,HS Hotsson Smart Acapulco
139,Marsh Harbour,BS,84.2,broken clouds,26.5412,-77.0636,Abaco Beach Resort
140,Semnan,IR,85.84,few clouds,35.5729,53.3971,Semnan Tourist Hotel
141,Kikwit,CD,82.87,broken clouds,-5.041,18.8162,HOTEL PLACE YALABA
142,Victoria,HK,86.38,scattered clouds,22.2855,114.1577,Mini Central
143,Saint-Philippe,RE,66.22,scattered clouds,-21.3585,55.7679,Le four à pain
144,Myronivka,UA,70.43,clear sky,49.6601,30.9823,Petryky Dim Myronivka
146,Puerto Ayacucho,VE,85.41,few clouds,5.6639,-67.6236,Posada Turistica Manapiare
151,Mecca,SA,90.95,overcast clouds,21.4267,39.8261,"Makkah Clock Royal Tower, A Fairmont Hotel"
153,Voh,NC,67.48,overcast clouds,-20.9667,164.7,Le gîte du Koniambo
154,Aswan,EG,94.6,clear sky,24.0934,32.907,Nuba Nile
155,Mahebourg,MU,70.25,scattered clouds,-20.4081,57.7,Shandrani Beachcomber Resort & Spa
156,Port Hardy,CA,66.38,fog,50.6996,-127.4199,Airport Inn-Port Hardy
158,Saint-Augustin,CA,66.16,overcast clouds,51.226,-58.6502,
159,Rio Bananal,BR,75.99,broken clouds,-19.265,-40.3333,HOTEL SCARTON
160,Jalu,LY,89.89,clear sky,29.0331,21.5482,صاحبة الفخامة
161,Pemangkat,ID,77.85,overcast clouds,1.1667,108.9667,Ramah Kost KITA
162,Puerto Colombia,CO,91.49,few clouds,10.9878,-74.9547,Hotel El Emigrante
163,Jamestown,US,77.52,scattered clouds,42.097,-79.2353,Hampton Inn & Suites Jamestown
166,Parauna,BR,84.4,clear sky,-16.9478,-50.4486,Hotel Serras de Paraúna
167,Innisfail,AU,65.8,broken clouds,-17.5333,146.0333,Moondarra Motel
168,Bathsheba,BB,86.61,scattered clouds,13.2167,-59.5167,Atlantis Hotel
170,Bengkulu,ID,76.5,overcast clouds,-3.8004,102.2655,Grage Hotel Bengkulu
171,Claveria,PH,80.01,overcast clouds,18.6074,121.0832,Casa Grand Inn By The Sea
172,Paraiso,CR,79.66,overcast clouds,9.8383,-83.8656,Hotel Rinconcito Verde
173,Meulaboh,ID,76.44,broken clouds,4.1363,96.1285,Kost Pria
175,Grottammare,IT,78.82,clear sky,42.9888,13.8649,Hotel La Perla Preziosa
177,Buloh Kasap,MY,76.21,overcast clouds,2.5536,102.764,Teratak Ixora Segamat
178,Gat,IL,81.81,scattered clouds,31.61,34.7642,OlusHome
180,Sabha,LY,91.63,clear sky,27.0377,14.4283,محطة ام الارانب -سبها مواصلات
181,Luebo,CD,79.61,scattered clouds,-5.35,21.4167,
182,Alofi,NU,75.09,clear sky,-19.0595,-169.9187,Taloa Heights
183,Mokolo,CM,69.4,overcast clouds,10.7398,13.8019,Diwa Hôtel
184,Shimoda,JP,79.11,clear sky,34.6667,138.95,Shimoda Tokyu Hotel
185,Aras,ES,77.41,clear sky,42.5617,-2.356,Jardines de Viana Spa
187,Chake Chake,TZ,73.09,clear sky,-5.2459,39.7666,Hotel Archipelago
190,Thompson,CA,66.36,broken clouds,55.7435,-97.8558,Burntwood Hotel
194,That Phanom,TH,77.18,moderate rain,16.9364,104.7104,ณ ธาตุพนมเพลส Na That Panom Place Hotel
195,Souillac,MU,70.18,scattered clouds,-20.5167,57.5167,Shanti Maurice Resort & Spa
196,Hasaki,JP,75.6,broken clouds,35.7333,140.8333,Inubosaki Kanko Hotel
198,Torbay,CA,68.29,overcast clouds,47.6666,-52.7314,Gallows Cove
199,Portland,US,94.98,scattered clouds,45.5234,-122.6762,Embassy Suites by Hilton Portland Downtown
200,Sioux Lookout,CA,80.67,scattered clouds,50.1001,-91.917,Knobby's Fly-In Camps
202,Dhidhdhoo,MV,81.5,overcast clouds,6.8833,73.1,Dhidhoo beach
204,Gonen,TR,76.96,clear sky,40.1049,27.654,Gönen Palmiye Butik Pansiyon
206,Svetlaya,RU,69.66,clear sky,46.5389,138.3297,
207,Lasa,IT,66.36,scattered clouds,46.6166,10.7002,Pension Feldgärtenhof
208,Sola,VU,80.11,overcast clouds,-13.8833,167.55,Leumerus Bungalows
210,Fairbanks,US,68.22,clear sky,64.8378,-147.7164,Westmark Fairbanks Hotel & Conference Center
212,Gweta,BW,65.62,clear sky,-20.1833,25.2333,Gweta Lodge
213,Burdur,TR,84.9,clear sky,37.7203,30.2908,Özeren Grand Hotel & Spa
214,Shenzhen,CN,86.27,broken clouds,22.5455,114.0683,Grand Skylight
215,Mukhen,RU,67.93,broken clouds,48.1,136.1,
218,Birjand,IR,79.27,overcast clouds,32.8663,59.2211,Birjand Tourist Hotel
219,Nicolas Bravo,MX,87.48,scattered clouds,18.45,-88.9167,
222,Paciran,ID,75.34,clear sky,-6.8767,112.3761,Tanjung Kodok Beach Resort
226,Belyy Yar,RU,67.89,clear sky,53.6039,91.3903,Pasportnyy Stol
227,Mayskiy,RU,80.01,broken clouds,47.6931,40.1025,Dio Lakrua
228,Westport,US,88.9,broken clouds,41.1415,-73.3579,The Westport Inn
229,Karaton,ID,73.56,overcast clouds,-6.3424,106.1045,Parkir Mobil Wisata CAS Water Park
232,Misratah,LY,83.08,clear sky,32.3754,15.0925,Almasa Hotel
233,Ampanihy,MG,68.02,overcast clouds,-24.7,44.75,Angora Hotel
234,Luzhou,CN,79.07,scattered clouds,28.8724,105.4405,Shijichun Hotel
236,Galiakot,IN,83.88,overcast clouds,23.5167,74.0,Galiakot
237,Warrington,GB,68.72,scattered clouds,53.3925,-2.5802,Villaggio Hotel
238,Dingle,PH,75.69,overcast clouds,10.9995,122.6711,SEGAYA PROPERTY
239,Merauke,ID,77.16,overcast clouds,-8.4667,140.3333,
240,Ponta Do Sol,PT,78.01,clear sky,32.6667,-17.1,Hotel do Campo
242,Columbus,US,84.11,few clouds,39.9612,-82.9988,DoubleTree Suites by Hilton Hotel Columbus Downtown
247,Faya,SA,71.71,broken clouds,18.3851,42.4509,املاك خالد الشعشوع
248,Half Moon Bay,US,78.13,broken clouds,37.4636,-122.4286,"The Ritz-Carlton, Half Moon Bay"
249,Nara,JP,81.5,overcast clouds,34.6851,135.8049,Guesthouse Nara Komachi
251,Gouyave,GD,84.97,clear sky,12.1646,-61.7296,Rumboat Retreat
253,Ypsonas,CY,81.45,clear sky,34.6884,32.9574,Club Aphrodite
254,Riachao Das Neves,BR,94.3,clear sky,-11.7461,-44.91,Casa Costa
255,Tura,IN,74.16,light rain,25.5198,90.2201,Hotel RIKMAN Continental
256,Otsuki,JP,77.99,few clouds,35.6,138.9333,真木温泉
257,Liverpool,GB,67.14,scattered clouds,53.4106,-2.9779,Premier Inn Liverpool City Centre (Moorfields) hotel
260,Hualmay,PE,67.46,few clouds,-11.0964,-77.6139,Hotel Villa Kitzia Huacho
262,Peniche,PT,80.08,clear sky,39.3558,-9.3811,Hotel Star inn Peniche
263,Sovetskiy,RU,66.25,light rain,61.3614,63.5842,Apartment on Kievskaya 29
264,Lianzhou,CN,74.3,scattered clouds,24.7811,112.3825,Qingcheng Tourism Industry
267,Lompoc,US,89.78,clear sky,34.6391,-120.4579,"Holiday Inn Express Lompoc, an IHG Hotel"
268,Kalispell,US,91.49,clear sky,48.1958,-114.3129,Red Lion Hotel Kalispell
269,San Jose Del Palmar,CO,71.13,overcast clouds,4.9742,-76.2283,
271,Atar,MR,91.74,light rain,20.5169,-13.0499,Oumou Elghoura
273,Lenger,KZ,71.04,clear sky,42.183,69.8839,Gostevoy Dom 1
274,Eilenburg,DE,67.12,overcast clouds,51.4598,12.6334,Eiscafé-Pizzeria-Hotel Rialto
275,Cayenne,GF,85.08,broken clouds,4.9333,-52.3333,Hôtel Le Dronmi
278,Angoche,MZ,73.02,broken clouds,-16.2325,39.9086,Guest House HESADA
280,Yumen,CN,78.91,overcast clouds,40.2833,97.2,
281,Verona,IT,81.43,few clouds,45.4167,11.0333,Hotel Verona
282,Upata,VE,83.19,broken clouds,8.0086,-62.3989,Posada Villa Nela
283,Komsomolskiy,UZ,84.92,overcast clouds,40.4272,71.7189,Ikathouse
286,Nador,MA,82.65,broken clouds,35.174,-2.9287,Hôtel La Giralda
287,Pombas,CV,78.58,overcast clouds,17.1503,-25.0201,Paul Paradis
288,Carballo,ES,78.22,clear sky,43.213,-8.691,Pazo do Souto
289,Paita,PE,69.6,few clouds,-5.0892,-81.1144,Hotel Náutico de Paita
290,College,US,68.2,broken clouds,64.8569,-147.8028,Pike's Waterfront Lodge
291,Envira,BR,85.33,overcast clouds,-7.3,-70.2167,
292,Tianpeng,CN,81.07,clear sky,30.9866,103.9393,Shuangliu Love Home Business Hotel
293,Poya,NC,67.32,overcast clouds,-21.35,165.15,
295,Gariaband,IN,79.88,overcast clouds,20.635,82.0614,हंसराज ट्रैक्टर
296,Fortuna,US,65.98,broken clouds,40.5982,-124.1573,Super 8 by Wyndham Fortuna
299,Tomatlan,MX,92.98,broken clouds,19.9333,-105.25,El Salvial
300,San Juan,AR,68.43,clear sky,-31.5375,-68.5364,Hotel Provincial
301,Gamboma,CG,84.9,overcast clouds,-1.8764,15.8644,Residence N'Keni
302,Severnyy,RU,71.64,clear sky,50.677,36.5532,Full House North Mini-Hotel
303,Nevelsk,RU,65.89,overcast clouds,46.6733,141.8633,Gostinitsa Viktoriya
304,Lazaro Cardenas,MX,88.27,broken clouds,17.9583,-102.2,HOTEL QUINTA ANTIGUA
306,Pizarro,CO,81.01,light rain,4.9533,-77.366,Hotel Limonar
308,Boquira,BR,89.91,clear sky,-12.8231,-42.7306,Cristal Palace Hotel
310,Conakry,GN,78.87,scattered clouds,9.538,-13.6773,Riviera Royal Hotel
311,Namatanai,PG,77.72,overcast clouds,-3.6667,152.4333,Seagulls Inn Namatani
315,Rantoul,US,84.43,broken clouds,40.3084,-88.1559,First Heritage Inn
317,Kavieng,PG,81.64,light rain,-2.5744,150.7967,Nusa Island Retreat
318,Bethel,US,86.85,broken clouds,41.3712,-73.414,Courtyard by Marriott Danbury
319,Waddan,LY,91.26,clear sky,29.1614,16.139,محل الشريف محمد العايب
321,Nevers,FR,75.13,broken clouds,46.9167,3.3333,Castle Prye
322,Umm Lajj,SA,90.07,scattered clouds,25.0213,37.2685,Moon light Furnished Units
325,Ville-Marie,CA,78.49,scattered clouds,47.3335,-79.433,La Bannik
326,Paoua,CF,70.14,light rain,7.2427,16.4406,Quartier Paoua Elien
328,Karratha,AU,71.11,few clouds,-20.7377,116.8463,ibis Styles Karratha
329,Tual,ID,79.09,broken clouds,-5.6667,132.75,Grand Vilia Hotel
332,Huatusco,MX,77.31,few clouds,19.15,-96.95,Hotel Misión Cocuyos Alta Montaña
335,Odweyne,SO,75.49,scattered clouds,9.4092,45.064,Eng Hiirey House
336,Pniv,UA,65.59,light rain,48.6178,24.5287,Imperiya Hotels
337,Luanda,AO,71.6,clear sky,-8.8368,13.2343,EPIC SANA Luanda
339,Pinawa,CA,84.25,clear sky,50.1489,-95.8811,Pinawa Motel
341,Bumba,CD,71.42,scattered clouds,2.1833,22.4667,Père Carlos
342,Kasangulu,CD,80.47,few clouds,-4.5911,15.1708,Hôtel le Relais
343,Nobres,BR,92.26,clear sky,-14.7203,-56.3275,Hotel Portal Nobres
344,Natal,BR,80.82,broken clouds,-5.795,-35.2094,Villa Park Hotel | Natal
346,Elko,US,92.64,clear sky,41.0002,-115.5012,
347,Huarmey,PE,68.04,overcast clouds,-10.0681,-78.1522,Hotel Miramar
348,Rameswaram,IN,82.74,few clouds,9.2833,79.3,Daiwik Hotels Rameswaram
349,Estelle,US,91.99,broken clouds,29.8458,-90.1067,Ohio
350,San Cristobal,VE,82.58,scattered clouds,7.7669,-72.225,Pirineos
352,Carbonia,IT,84.0,clear sky,39.1672,8.5222,Lu 'Hotel
354,Vao,NC,67.41,moderate rain,-22.6667,167.4833,Hotel Kou-Bugny
355,Douglas,US,85.51,clear sky,41.3,-96.167,Hilton Garden Inn Omaha West
356,Dwarka,IN,81.36,scattered clouds,22.2394,68.9678,Hotel Narayan Avezika Comfort
357,Ailigandi,PA,85.12,overcast clouds,9.2333,-78.0167,Akwa Reef Lodge
358,Korla,CN,76.08,clear sky,41.7597,86.1469,Gulisitan Hotel
359,Barahona,DO,94.82,scattered clouds,18.2085,-71.1008,Hotel Caribe
361,Santa Maria Do Suacui,BR,85.87,broken clouds,-18.1903,-42.4142,Hotel Vale Verde
362,Montbrison,FR,79.14,clear sky,45.6667,4.0833,Hostellerie Del Matin Calme Hôtel à Montbrison
364,Vanimo,PG,76.08,scattered clouds,-2.6741,141.3028,Vahmoneh Lodge Vanimo
366,Manicore,BR,89.55,scattered clouds,-5.8092,-61.3003,Hotel Durval
367,Caraquet,CA,70.34,scattered clouds,47.7941,-64.9386,Gite Le Poirier
368,Bartica,GY,89.92,scattered clouds,6.4,-58.6167,Sloth Island Nature Resort
369,Loa Janan,ID,73.8,light rain,-0.583,117.095,Kost bu jono
370,Quatre Cocos,MU,70.09,light rain,-20.2078,57.7625,Sunrise Attitude Hotel
374,Esmeraldas,BR,82.71,overcast clouds,-19.7625,-44.3139,Forasteiro Pousada
375,Les Cayes,HT,89.78,clear sky,18.2,-73.75,Villa Orphee
376,Vilnius,LT,65.28,clear sky,54.6892,25.2798,Amberton Cathedral Square Hotel Vilnius
377,Maneadero,MX,77.11,few clouds,31.7167,-116.5667,Casa De Thompson
379,San Policarpo,PH,80.42,light rain,12.1791,125.5072,Agapita M. Nicart
382,Dicabisagan,PH,78.49,overcast clouds,17.0818,122.4157,Nancy Montanes Bernardo
383,Nemuro,JP,65.08,clear sky,43.3236,145.575,Hotel Nemuro Kaiyoutei
386,Zlitan,LY,81.21,clear sky,32.4674,14.5687,القسم الداخلي للجامعة الأسمرية
388,Emba,KZ,73.31,scattered clouds,48.8264,58.1442,
389,Vila Velha,BR,71.55,broken clouds,-20.3297,-40.2925,Hotel Vitória Palace
390,Nusaybin,TR,94.03,clear sky,37.0778,41.2178,Aydinlar Hotel
394,Mandalgovi,MN,65.41,broken clouds,45.7625,106.2708,В.Ганбат
395,Kaili,ID,66.88,overcast clouds,-3.4626,120.2147,
396,Itarema,BR,82.53,overcast clouds,-2.9248,-39.9167,"Sea Lounge! Bar, Club & Restaurant"
399,Ingham,US,81.64,overcast clouds,42.6,-84.3833,Sunset Mobile Home Park
400,Hami,CN,90.07,overcast clouds,42.8,93.45,Laoyutang Resort
402,Rosario Oeste,BR,92.25,clear sky,-14.8361,-56.4275,Alvorada Palace accomodation
403,Estremoz,PT,94.42,few clouds,38.8443,-7.5859,Dom Dinis Low Cost Hostel
406,Sakaiminato,JP,80.58,broken clouds,35.55,133.2333,Italian pasley
407,Yurimaguas,PE,93.36,few clouds,-5.9,-76.0833,Rio Huallaga Hotel & Business Center
410,Poum,NC,71.4,overcast clouds,-20.2333,164.0167,
411,Sao Jose Da Coroa Grande,BR,78.1,overcast clouds,-8.8978,-35.1478,Crôa Mares Hotel
412,Zhezkazgan,KZ,66.97,few clouds,47.8043,67.7144,Hotel Zumrat
414,Ouadda,CF,69.22,light rain,8.0777,22.4007,
416,Pangai,TO,77.4,light rain,-19.8,-174.35,Ha'apai Beach Resort
417,Ternate,ID,79.09,overcast clouds,0.8,127.4,Sahid Bela Ternate Hotel
418,Pasni,PK,81.19,light rain,25.2631,63.471,Kashmiri Hotal
420,Harper,LR,75.4,scattered clouds,4.375,-7.7169,Screensaver
422,Northam,GB,66.38,overcast clouds,51.0333,-4.2167,Durrant House Hotel
424,Georgiyevka,KZ,68.04,broken clouds,43.0369,74.7114,Gostinitsa Imperiya
426,Hobyo,SO,76.05,scattered clouds,5.3505,48.5268,Iftin hotel hobyo
427,Sao Joao Da Barra,BR,71.69,broken clouds,-21.6403,-41.0511,Pousada Porto De Canoas
428,Darnah,LY,80.1,clear sky,32.767,22.6367,فندق الفردوس
429,Smidovich,RU,67.93,clear sky,48.6,133.8167,Gostinnitsa
430,Mabaruma,GY,80.96,overcast clouds,8.2,-59.7833,Monty Brooms Guest House
431,Fare,PF,78.89,clear sky,-16.7,-151.0167,Maitai Lapita Village Huahine
432,Biak,ID,74.46,broken clouds,-0.9131,122.8766,Penginapan Kim
433,Lerik,AZ,66.92,clear sky,38.7726,48.4128,9 QARDAŞ
435,Turayf,SA,91.65,clear sky,31.6725,38.6637,Turaif
436,Inhambane,MZ,67.33,clear sky,-23.865,35.3833,Oceano
437,Kitimat,CA,79.92,clear sky,54.0524,-128.6534,Kingfish Westcoast Adventures Ltd. Kitimat Estuary Lodge B&B
439,Zanjan,IR,68.38,few clouds,36.6736,48.4787,Qasr Hotel
440,Wajima,JP,80.58,clear sky,37.4,136.9,Wajiima Onsen Yashio
441,Veraval,IN,81.07,broken clouds,20.9,70.3667,Lords Inn Somnath
443,Grand-Santi,GF,81.72,broken clouds,4.25,-54.3833,Hotel La Villa Couacou
444,Yarada,IN,84.52,mist,17.65,83.2667,Yarada Jungle Beach Resorts
445,Goderich,CA,71.92,clear sky,43.7501,-81.7165,Harmony Inn
446,Erzin,TR,76.59,clear sky,36.9559,36.2,Artemis Otel
447,Lasem,ID,74.89,few clouds,-6.6922,111.4527,"Nyah Lasem | Museum, Warung & Community Center"
448,Sabya,SA,91.02,broken clouds,17.1495,42.6254,Aseel Hotel Apartment
449,Deming,US,89.49,clear sky,32.2687,-107.7586,Best Western Deming Southwest Inn
450,Nabire,ID,74.91,overcast clouds,-3.3667,135.4833,Hotel Nusantara I
451,Muroto,JP,80.53,broken clouds,33.2833,134.15,Oota Ryokan
453,Dunda,TZ,70.23,overcast clouds,-8.1167,34.25,
455,Ambanja,MG,71.49,light rain,-13.6833,48.45,Hotel Salama and Fast Food
456,Burns Lake,CA,78.22,clear sky,54.2331,-125.7533,Burns Lake Bed and Breakfast
457,Mikuni,JP,78.71,clear sky,36.2171,136.1519,Seifuso
458,Praia,CV,79.34,broken clouds,14.9215,-23.5087,LT Aparthotel
459,Kimparana,ML,83.37,broken clouds,12.8347,-4.9244,
460,Xichang,CN,66.09,overcast clouds,27.8964,102.2634,Xichang ibis Hotel
462,Camacari,BR,80.37,clear sky,-12.6975,-38.3242,Sítio Blasi
463,Saint Anthony,US,89.04,clear sky,45.0205,-93.218,Holiday Inn Express Roseville-St. Paul
465,Foindu,SL,75.76,overcast clouds,7.4108,-11.5422,
466,Rabat,MA,78.87,clear sky,33.9911,-6.8401,Hôtel Mercure Rabat Sheherazade
471,Forchheim,DE,69.15,few clouds,49.7175,11.0588,Hotel Plaza
472,Kokopo,PG,75.97,few clouds,-4.352,152.2633,Kokopo Beach Bungalow Resort
473,Thoen,TH,77.79,overcast clouds,17.6129,99.2161,บ้านห้องนอน
474,Casambalangan,PH,80.29,overcast clouds,18.3765,122.1274,Villa Saturnina
475,Smithers,CA,77.32,few clouds,54.7804,-127.1743,"Prestige Hudson Bay Lodge, Premier Collection"
481,San Quintin,MX,74.97,clear sky,30.4833,-115.95,Don Eddie's / Hotel - Restaurant
482,Vila Franca Do Campo,PT,75.61,scattered clouds,37.7167,-25.4333,Pestana Bahia Praia
483,Mitzic,GA,68.74,scattered clouds,0.7821,11.549,Motel Emys
484,Ferrol,ES,74.71,clear sky,43.4832,-8.2369,Hotel Spa Sercotel Odeón
485,Nantucket,US,87.94,clear sky,41.2835,-70.0995,Jared Coffin House
487,Prince Rupert,CA,68.09,broken clouds,54.3161,-130.3201,Crest Hotel
488,Laguna,US,90.18,clear sky,38.421,-121.4238,"Holiday Inn Express & Suites Elk Grove Central - Hwy 99, an IHG Hotel"
491,Ryotsu,JP,79.02,clear sky,38.0833,138.4333,Sadokamoko Onsen Kohanno Yado Yoshidaya
492,Uthal,PK,81.72,overcast clouds,25.8072,66.6219,Al-Mustafa Hotel
497,Chabahar,IR,81.84,overcast clouds,25.2919,60.643,هتل گدروشیا
499,Monterey,US,91.18,clear sky,36.2505,-121.2516,
500,Nyimba,ZM,65.32,clear sky,-14.5566,30.8149,Dali Dali Lodge
502,Matara,LK,77.74,overcast clouds,5.9485,80.5353,Amaloh Boutique Resort
503,Port-Gentil,GA,75.16,few clouds,-0.7193,8.7815,Fengshui Residence
506,Taiyuan,CN,73.26,overcast clouds,37.8694,112.5603,Taiyuan Wanda Wenhua Hotel
507,Bairiki,KI,80.6,scattered clouds,1.3292,172.9752,Tarawa Boutique Hotel
508,Vinh,VN,80.37,moderate rain,18.6667,105.6667,Vuong Hoan 2
509,Sorong,ID,78.48,overcast clouds,-0.8833,131.25,Waigo Splash Hotel
510,Kovalevskoye,RU,80.89,clear sky,45.1942,40.9761,
512,Yazoo City,US,86.7,overcast clouds,32.8551,-90.4056,Hampton Inn Yazoo City
513,Seoul,KR,82.0,clear sky,37.5683,126.9778,LOTTE HOTEL SEOUL
514,Madison,US,88.99,light rain,34.7334,-86.5667,Embassy Suites by Hilton Huntsville
515,Kosonsoy,UZ,70.36,clear sky,41.2561,71.5508,"Гостиница ""Goldstar'"
516,Gazanjyk,TM,84.99,clear sky,39.2446,55.5154,Railway motel
517,Carupano,VE,83.95,few clouds,10.6678,-63.2585,Hotel La dorada
518,Liwale,TZ,72.3,overcast clouds,-9.7667,37.9333,Tumaini Tulivu Lodge
519,Samarai,PG,79.65,few clouds,-10.6167,150.6667,Nuli Sapi
522,Olinda,BR,74.93,light rain,-8.0089,-34.8553,Flat Quatro Rodas Olinda
527,Bandarbeyla,SO,75.96,clear sky,9.4942,50.8122,JABIR HOTEL
528,Chapais,CA,67.78,overcast clouds,49.7834,-74.8492,Hôtel Opémiska
529,Naco,MX,84.79,clear sky,31.3347,-109.9483,Motel Colonial
530,Hirara,JP,84.85,overcast clouds,24.8,125.2833,Hotel Atoll Emerald Miyakojima
531,Lagoa,PT,73.47,clear sky,39.05,-27.9833,Casa Das Faias
535,Oriximina,BR,89.2,scattered clouds,-1.7656,-55.8661,Pousada Tia Amélia
536,Beira,MZ,66.29,clear sky,-19.8436,34.8389,Beira Terrace Hotel
537,Verkhnyaya Balkariya,RU,65.32,few clouds,43.1279,43.4573,Верхняя Балкария
540,Padang,ID,77.38,overcast clouds,-0.9492,100.3543,Mercure Padang
541,Tamugan,PH,74.64,overcast clouds,7.2308,125.3764,Heavenly Farms
542,Puerto Rondon,CO,85.1,broken clouds,6.2805,-71.1,Urbanización Santa Clara
543,Camacupa,AO,65.08,clear sky,-12.0167,17.4833,
545,Port Blair,IN,80.64,mist,11.6667,92.75,"Welcomhotel By ITC Hotels, Bay Island, Port Blair"
546,Asau,RO,69.28,overcast clouds,46.4333,26.4,Casa Mika Ciobanus
548,Teya,RU,65.59,overcast clouds,60.3778,92.6267,
549,Nizwa,OM,86.77,overcast clouds,22.9333,57.5333,Orient Apartments
550,Saint-Joseph,RE,65.21,scattered clouds,-21.3667,55.6167,"""Plantation Bed and Breakfast"
551,Juquia,BR,70.52,clear sky,-24.3208,-47.6347,Casa Quero Verde
552,Biu,NG,66.47,overcast clouds,10.6129,12.1946,Emir's Palace
553,Mozarlandia,BR,92.44,clear sky,-14.7447,-50.5706,Hotel Santa Mônica
554,Villarrica,PY,70.45,few clouds,-25.75,-56.4333,Mansión Reljuv Tours SA
555,Belgrade,RS,74.64,thunderstorm with rain,44.804,20.4651,Saruna Wellness - Hotel Park Belgrade
556,Kutum,SD,81.73,light rain,14.2,24.6667,Dibbo areaمنطقة دبو
558,Ahmadpur Sial,PK,90.52,overcast clouds,30.6754,71.7483,M aqeel dhoobi
560,Morondava,MG,71.11,few clouds,-20.2833,44.2833,La Case Bambou
562,Pacific Grove,US,74.8,few clouds,36.6177,-121.9166,Lovers Point Inn
565,Antigonish,CA,71.96,overcast clouds,45.6169,-61.9986,Claymore Inn and Suites
566,Gravelbourg,CA,86.27,clear sky,49.8834,-106.5512,Historic Bishops Residence Bed & Breakfast
567,Batticaloa,LK,79.74,overcast clouds,7.7102,81.6924,Grand Star Guest House
569,Miami,US,92.01,broken clouds,25.7743,-80.1937,Miami Sun Hotel- Downtown/Port of Miami
570,Tabas,IR,93.67,clear sky,33.5959,56.9244,شرکت معماری مهراز شایگان آراد
572,Jizan,SA,90.54,overcast clouds,17.3333,42.6667,شهدان. ابوالحجر
574,Bradford,GB,68.49,light intensity drizzle,53.7939,-1.7521,The Bradford Hotel
575,Hamilton,US,85.64,clear sky,39.1834,-84.5333,Six Acres Bed & Breakfast
577,Iquitos,PE,75.24,moderate rain,-3.7481,-73.2472,Cortez Malaga Techy Caroly
579,Lucea,JM,87.66,few clouds,18.451,-78.1736,Grand Palladium Jamaica Resort & Spa
580,Palmer,US,85.37,scattered clouds,42.1584,-72.3287,Wedgewood Motel
583,Kavaratti,IN,81.41,broken clouds,10.5669,72.642,Green leaf
584,Grand-Lahou,CI,74.71,overcast clouds,5.1367,-5.0242,Hotel Beatitude de Grand Lahou
585,Pochutla,MX,89.42,broken clouds,15.7432,-96.4661,Hotel Posada San Jose
586,Haapiti,PF,78.53,light rain,-17.5667,-149.8667,Linareva Moorea Beach Resort
587,Templin,DE,69.1,few clouds,53.1186,13.5022,AHORN Seehotel Templin
589,Barcelos,PT,93.92,clear sky,41.5388,-8.6151,Hotel Restaurante Bagoeira
590,Conde,BR,76.46,light rain,-7.2597,-34.9075,Pousada Beija Flor
591,Pitimbu,BR,77.59,moderate rain,-7.4706,-34.8086,Reserva do Abiaí
592,Bo Phloi,TH,78.75,overcast clouds,14.3236,99.5161,แอท เมืองพลอย รีสอร์ท At MuangPloy Resort
593,Bud,US,84.06,scattered clouds,39.447,-86.1758,Ted McQuinn Trust
594,Umm Kaddadah,SD,88.43,light rain,13.6017,26.6876,
598,Nosy Varika,MG,66.85,clear sky,-20.5833,48.5333,Hotel Volazara
601,Los Llanos De Aridane,ES,73.13,broken clouds,28.6585,-17.9182,Valle Aridane
602,Buraydah,SA,93.65,overcast clouds,26.326,43.975,Mövenpick Qassim
603,Road Town,VG,87.89,few clouds,18.4167,-64.6167,"ZINGARA 76ft Catamaran, full crew-all included"
606,Kerema,PG,76.75,overcast clouds,-7.9631,145.7785,Frena Lodge
607,Moron,AR,69.01,few clouds,-34.6534,-58.6198,Hotel Morón
608,Pompeu,BR,76.71,overcast clouds,-19.2244,-44.9353,
609,Huilong,CN,83.93,overcast clouds,31.8111,121.655,Hilton Garden Inn Qidong
611,Saint-Louis,SN,84.43,overcast clouds,16.3333,-15.0,
612,Mogadishu,SO,76.39,overcast clouds,2.0371,45.3438,Hotel Juba
613,Nakhon Si Thammarat,TH,77.38,overcast clouds,8.25,100.0,ร้านไอซ์โมสีshop
614,Oyem,GA,66.96,light rain,1.5995,11.5793,Commissariat de police
615,Sao Filipe,CV,77.65,overcast clouds,14.8961,-24.4956,Hotel Xaguate
616,Dharmadam,IN,78.85,heavy intensity rain,11.7833,75.4333,Samudra Homes
617,Great Malvern,GB,69.19,light rain,52.1116,-2.3252,The Abbey Hotel
618,Saint-Pierre,RE,68.92,few clouds,-21.3393,55.4781,Alize Plage
619,Daru,PG,76.05,overcast clouds,-9.0763,143.2092,Daru Lodge
621,Galesong,ID,75.22,overcast clouds,-5.3166,119.3661,Sapriadi Appy
623,Nianzishan,CN,67.44,overcast clouds,47.5167,122.8833,Jinhong Hotel
624,Chervona Sloboda,UA,71.44,clear sky,49.3789,32.1464,Sportohota
625,Buala,SB,79.12,light rain,-8.145,159.5921,Maringe Lagoon Lodge
629,Tomakomai,JP,70.18,mist,42.6369,141.6033,Hotel Wing International Tomakomai
631,Qandala,SO,90.19,broken clouds,11.472,49.8728,
632,Sawakin,SD,93.67,clear sky,19.1059,37.3321,فندق الدويم
634,Yatou,CN,75.09,overcast clouds,37.15,122.3833,GreenTree Hotel Rongcheng Bus Station
637,Ocos,GT,89.78,broken clouds,14.5094,-92.1933,Auto Hotel El Soñador
638,Nichinan,JP,78.87,overcast clouds,31.6,131.3667,Guest House Aki
639,Dracena,BR,79.81,clear sky,-21.4843,-51.535,Primum Palace
640,Bintulu,MY,77.41,light rain,3.1667,113.0333,900 Boutique INN
641,Namtsy,RU,65.28,scattered clouds,62.7161,129.6658,"""Эңсиэли Киин"""
644,Lumeje,AO,67.96,clear sky,-11.55,20.7833,
645,Boyabat,TR,68.13,clear sky,41.4689,34.7667,Kolaz Palas Otel
646,Cabatuan,PH,76.32,overcast clouds,10.8794,122.486,MVC Transient Room
647,Marystown,CA,67.86,overcast clouds,47.1666,-55.1483,Marystown Hotel & Convention Centre
648,Surab,PK,73.06,overcast clouds,28.4914,66.2585,Bismillah Hotel
649,Zwedru,LR,73.76,few clouds,6.0667,-8.1281,Elijah Worjloh
650,Kibala,TD,76.95,thunderstorm,9.1104,18.3463,Prasant Hotels
651,Mantua,IT,85.24,clear sky,45.1667,10.7833,Hotel la Favorita
653,Sibolga,ID,76.91,light rain,1.7427,98.7792,Hotel Syariah CN Darussalam
654,Asfi,MA,75.81,clear sky,32.2994,-9.2372,Hôtel Abda
658,Khasan,RU,71.47,overcast clouds,42.4308,130.6434,Fangchuan Self-Driving Camp
659,Tall Kayf,TR,91.74,clear sky,37.0833,41.0667,
661,Phan Thiet,VN,79.11,overcast clouds,10.9333,108.1,Hotel Saigon-PT
662,Wajid,SO,79.2,scattered clouds,3.8093,43.2471,xamdihotelresturant114
665,Sinnamary,GF,82.92,few clouds,5.3833,-52.95,ALETHEIA Appartement Sinnamary
666,Tecoanapa,MX,84.97,broken clouds,16.5167,-98.75,Hotel Manglares
667,Brewster,US,87.08,broken clouds,41.3973,-73.6171,Heidi's Inn
668,Tezu,IN,75.99,overcast clouds,27.9167,96.1667,Circuit House
669,Toktogul,KG,65.91,overcast clouds,41.8708,72.9402,KAGAN
670,Huancabamba,PE,72.77,clear sky,-5.2386,-79.4506,Hospedaje El Dorado
672,Maceio,BR,81.84,scattered clouds,-9.6658,-35.7353,Hotel Ponta Verde Maceió
674,Gongzhuling,CN,69.22,clear sky,43.5008,124.8198,如家旅馆
675,Santa Isabel,BR,65.91,clear sky,-23.3156,-46.2214,Chácara Sombra do Altíssimo
677,Mardin,TR,85.26,clear sky,37.3131,40.7436,Reyhani Kasri Hotel
678,Brownfield,US,93.38,broken clouds,33.1812,-102.2744,"Holiday Inn Express & Suites Brownfield, an IHG Hotel"
681,Kampene,CD,70.81,broken clouds,-3.6,26.6667,
682,Malindi,KE,74.79,clear sky,-3.2175,40.1191,African House Resort
683,Mayo,US,89.94,clear sky,38.8876,-76.5119,Resorts Resource Group International
